[
  {
    "序號": 1,
    "營業主體": "二苓加油站有限公司",
    "站名": "二苓加油站",
    "行政區": "小港區",
    "站址": "高雄市小港區大業北路218號",
    "電話號碼": "07-8013195",
    "經度Lng": 120.349240207,
    "緯度Lat": 22.562211313,
    "資料序號Seq": 1
  },
  {
    "序號": 2,
    "營業主體": "台灣中油股份有限公司",
    "站名": "三六號碼頭加油站",
    "行政區": "前鎮區",
    "站址": "高雄市前鎮區大華六街1號",
    "電話號碼": "07-8216398",
    "經度Lng": 120.291256,
    "緯度Lat": 22.6059849978,
    "資料序號Seq": 2
  },
  {
    "序號": 3,
    "營業主體": "台灣中油股份有限公司",
    "站名": "建國二路加油站",
    "行政區": "三民區",
    "站址": "高雄市三民區建國二路66號",
    "電話號碼": "07-2383484",
    "經度Lng": 120.310715297,
    "緯度Lat": 22.6377927443,
    "資料序號Seq": 3
  },
  {
    "序號": 4,
    "營業主體": "台灣中油股份有限公司",
    "站名": "中正四路加油站",
    "行政區": "前金區",
    "站址": "高雄市前金區中正四路251號",
    "電話號碼": "07-2212453",
    "經度Lng": 120.291423814,
    "緯度Lat": 22.6275770135,
    "資料序號Seq": 4
  },
  {
    "序號": 5,
    "營業主體": "台灣中油股份有限公司",
    "站名": "運河南路加油站",
    "行政區": "前金區",
    "站址": "高雄市前金區河南二路87號",
    "電話號碼": "07-2850458",
    "經度Lng": 120.295340272,
    "緯度Lat": 22.6350449661,
    "資料序號Seq": 5
  },
  {
    "序號": 6,
    "營業主體": "台灣中油股份有限公司",
    "站名": "後勁加油站",
    "行政區": "楠梓區",
    "站址": "高雄市楠梓區後昌路200號",
    "電話號碼": "07-3613018",
    "經度Lng": 120.3097525,
    "緯度Lat": 22.7165200987,
    "資料序號Seq": 6
  },
  {
    "序號": 7,
    "營業主體": "台灣中油股份有限公司",
    "站名": "左營加油站",
    "行政區": "左營區",
    "站址": "高雄市左營區中華一路2之11號",
    "電話號碼": "07-5825621",
    "經度Lng": 120.286332716,
    "緯度Lat": 22.6711377838,
    "資料序號Seq": 7
  },
  {
    "序號": 8,
    "營業主體": "台灣中油股份有限公司",
    "站名": "楠梓加油站",
    "行政區": "楠梓區",
    "站址": "高雄市楠梓區高楠公路1376號",
    "電話號碼": "07-3511761",
    "經度Lng": 120.325461853,
    "緯度Lat": 22.7194396408,
    "資料序號Seq": 8
  },
  {
    "序號": 9,
    "營業主體": "台灣中油股份有限公司",
    "站名": "中正二路加油站",
    "行政區": "新興區",
    "站址": "高雄市新興區中正二路166號",
    "電話號碼": "07-2241235",
    "經度Lng": 120.317089856,
    "緯度Lat": 22.6307047058,
    "資料序號Seq": 9
  },
  {
    "序號": 10,
    "營業主體": "台灣中油股份有限公司",
    "站名": "鼓山三路加油站",
    "行政區": "鼓山區",
    "站址": "高雄市鼓山區鼓山三路5之1號",
    "電話號碼": "07-5612463",
    "經度Lng": 120.276858472,
    "緯度Lat": 22.6479463955,
    "資料序號Seq": 10
  },
  {
    "序號": 11,
    "營業主體": "台灣中油股份有限公司",
    "站名": "三多三路加油站",
    "行政區": "苓雅區",
    "站址": "高雄市苓雅區三多三路264號",
    "電話號碼": "07-3335774",
    "經度Lng": 120.305375132,
    "緯度Lat": 22.6144349038,
    "資料序號Seq": 11
  },
  {
    "序號": 12,
    "營業主體": "台灣中油股份有限公司",
    "站名": "中華三路加油站",
    "行政區": "前金區",
    "站址": "高雄市前金區中華三路136號",
    "電話號碼": "07-2851354",
    "經度Lng": 120.295654645,
    "緯度Lat": 22.630500805,
    "資料序號Seq": 12
  },
  {
    "序號": 13,
    "營業主體": "台灣中油股份有限公司",
    "站名": "建工路加油站",
    "行政區": "三民區",
    "站址": "高雄市三民區建工路566 號",
    "電話號碼": "07-3832928",
    "經度Lng": 120.32467718,
    "緯度Lat": 22.6503068447,
    "資料序號Seq": 13
  },
  {
    "序號": 14,
    "營業主體": "台灣中油股份有限公司",
    "站名": "山東街加油站",
    "行政區": "三民區",
    "站址": "高雄市三民區山東街70號",
    "電話號碼": "07-3118164",
    "經度Lng": 120.3115472,
    "緯度Lat": 22.6425570953,
    "資料序號Seq": 14
  },
  {
    "序號": 15,
    "營業主體": "台灣中油股份有限公司",
    "站名": "臨海工業區加油站",
    "行政區": "小港區",
    "站址": "高雄市小港區沿海二路2號",
    "電話號碼": "07-8010873",
    "經度Lng": 120.370838085,
    "緯度Lat": 22.5431692257,
    "資料序號Seq": 15
  },
  {
    "序號": 16,
    "營業主體": "台灣中油股份有限公司",
    "站名": "前鎮加油站",
    "行政區": "前鎮區",
    "站址": "高雄市前鎮區擴建路1之1號",
    "電話號碼": "07-8213719",
    "經度Lng": 120.306042212,
    "緯度Lat": 22.5913555584,
    "資料序號Seq": 16
  },
  {
    "序號": 17,
    "營業主體": "台灣中油股份有限公司",
    "站名": "成功一路加油站",
    "行政區": "前金區",
    "站址": "高雄市前金區成功一路384號",
    "電話號碼": "07-2218734",
    "經度Lng": 120.294234589,
    "緯度Lat": 22.6235205799,
    "資料序號Seq": 17
  },
  {
    "序號": 18,
    "營業主體": "台灣中油股份有限公司",
    "站名": "高雄加工區加油站",
    "行政區": "前鎮區",
    "站址": "高雄市前鎮區加工區中四路3號",
    "電話號碼": "07-8218011",
    "經度Lng": 120.304664206,
    "緯度Lat": 22.5948069575,
    "資料序號Seq": 18
  },
  {
    "序號": 19,
    "營業主體": "台灣中油股份有限公司",
    "站名": "林森二路加油站",
    "行政區": "新興區",
    "站址": "高雄市新興區新田路82號",
    "電話號碼": "07-2819638",
    "經度Lng": 120.305754951,
    "緯度Lat": 22.6230882003,
    "資料序號Seq": 19
  },
  {
    "序號": 20,
    "營業主體": "台灣中油股份有限公司",
    "站名": "瑞豐加油站",
    "行政區": "前鎮區",
    "站址": "高雄市前鎮區瑞福路2號",
    "電話號碼": "07-7610629",
    "經度Lng": 120.336649448,
    "緯度Lat": 22.604759322,
    "資料序號Seq": 20
  },
  {
    "序號": 21,
    "營業主體": "台灣中油股份有限公司",
    "站名": "旗津加油站",
    "行政區": "旗津區",
    "站址": "高雄市旗津區中洲二路259號",
    "電話號碼": "07-5717391",
    "經度Lng": 120.285023941,
    "緯度Lat": 22.5911903469,
    "資料序號Seq": 21
  },
  {
    "序號": 22,
    "營業主體": "台灣中油股份有限公司",
    "站名": "四維三路加油站",
    "行政區": "苓雅區",
    "站址": "高雄市苓雅區永定街93號",
    "電話號碼": "07-3330396",
    "經度Lng": 120.311332589,
    "緯度Lat": 22.6192920981,
    "資料序號Seq": 22
  },
  {
    "序號": 23,
    "營業主體": "台灣中油股份有限公司",
    "站名": "民權路加油站",
    "行政區": "前鎮區",
    "站址": "高雄市前鎮區一心一路291號",
    "電話號碼": "07-3316290",
    "經度Lng": 120.313716395,
    "緯度Lat": 22.6096446131,
    "資料序號Seq": 23
  },
  {
    "序號": 24,
    "營業主體": "台灣中油股份有限公司",
    "站名": "高鳳加油站",
    "行政區": "苓雅區",
    "站址": "高雄市苓雅區建國一路3號",
    "電話號碼": "07-7491901",
    "經度Lng": 120.342505873,
    "緯度Lat": 22.6282007617,
    "資料序號Seq": 24
  },
  {
    "序號": 25,
    "營業主體": "台灣中油股份有限公司",
    "站名": "中正三路加油站",
    "行政區": "新興區",
    "站址": "高雄市新興區中正三路9號",
    "電話號碼": "07-2261045",
    "經度Lng": 120.310531767,
    "緯度Lat": 22.6304780192,
    "資料序號Seq": 25
  },
  {
    "序號": 26,
    "營業主體": "台灣中油股份有限公司",
    "站名": "三多二路加油站",
    "行政區": "苓雅區",
    "站址": "高雄市苓雅區三多二路80號",
    "電話號碼": "07-7618709",
    "經度Lng": 120.326896554,
    "緯度Lat": 22.6214983701,
    "資料序號Seq": 26
  },
  {
    "序號": 27,
    "營業主體": "台灣中油股份有限公司",
    "站名": "中山二路加油站",
    "行政區": "前金區",
    "站址": "高雄市前金區中山二路569號",
    "電話號碼": "07-2317441",
    "經度Lng": 120.301080097,
    "緯度Lat": 22.6218268336,
    "資料序號Seq": 27
  },
  {
    "序號": 28,
    "營業主體": "台灣中油股份有限公司",
    "站名": "大義街加油站",
    "行政區": "鹽埕區",
    "站址": "高雄市鹽埕區大義街56之1號",
    "電話號碼": "07-5518163",
    "經度Lng": 120.285995989,
    "緯度Lat": 22.620677927,
    "資料序號Seq": 28
  },
  {
    "序號": 29,
    "營業主體": "台灣中油股份有限公司",
    "站名": "漁港路加油站",
    "行政區": "前鎮區",
    "站址": "高雄市前鎮區漁港路2號",
    "電話號碼": "07-8216516",
    "經度Lng": 120.316217423,
    "緯度Lat": 22.5773730446,
    "資料序號Seq": 29
  },
  {
    "序號": 30,
    "營業主體": "台灣中油股份有限公司",
    "站名": "覺民路加油站",
    "行政區": "三民區",
    "站址": "高雄市三民區覺民路362號",
    "電話號碼": "07-3869992",
    "經度Lng": 120.33433205,
    "緯度Lat": 22.6408064894,
    "資料序號Seq": 30
  },
  {
    "序號": 31,
    "營業主體": "台灣中油股份有限公司",
    "站名": "鼎山路加油站",
    "行政區": "三民區",
    "站址": "高雄市三民區鼎山街373號",
    "電話號碼": "07-3839681",
    "經度Lng": 120.321853004,
    "緯度Lat": 22.6573480996,
    "資料序號Seq": 31
  },
  {
    "序號": 32,
    "營業主體": "台灣中油股份有限公司",
    "站名": "右昌軍校路加油站",
    "行政區": "楠梓區",
    "站址": "高雄市楠梓區軍校路737號",
    "電話號碼": "07-3637331",
    "經度Lng": 120.292128969,
    "緯度Lat": 22.7087318075,
    "資料序號Seq": 32
  },
  {
    "序號": 33,
    "營業主體": "台灣中油股份有限公司",
    "站名": "南鼓山加油站",
    "行政區": "鼓山區",
    "站址": "高雄市鼓山區捷興二街46號",
    "電話號碼": "07-5517556",
    "經度Lng": 120.27516937,
    "緯度Lat": 22.621923638,
    "資料序號Seq": 33
  },
  {
    "序號": 34,
    "營業主體": "台灣中油股份有限公司",
    "站名": "楠梓加工區加油站",
    "行政區": "楠梓區",
    "站址": "高雄市楠梓區加工區經五路125號",
    "電話號碼": "07-3630096",
    "經度Lng": 120.3015358,
    "緯度Lat": 22.7220984011,
    "資料序號Seq": 34
  },
  {
    "序號": 35,
    "營業主體": "台灣中油股份有限公司",
    "站名": "建國一路加油站",
    "行政區": "苓雅區",
    "站址": "高雄市苓雅區建國一路142號",
    "電話號碼": "07-7518715",
    "經度Lng": 120.330020661,
    "緯度Lat": 22.6326917683,
    "資料序號Seq": 35
  },
  {
    "序號": 36,
    "營業主體": "台灣中油股份有限公司",
    "站名": "青年路加油站",
    "行政區": "苓雅區",
    "站址": "高雄市苓雅區民權一路105號",
    "電話號碼": "07-3352549",
    "經度Lng": 120.311835845,
    "緯度Lat": 22.6229517918,
    "資料序號Seq": 36
  },
  {
    "序號": 37,
    "營業主體": "台亞石油股份有限公司",
    "站名": "台亞楠梓交流道加油站",
    "行政區": "楠梓區",
    "站址": "高雄市楠梓區鳳楠路45號",
    "電話號碼": "07-3540601",
    "經度Lng": 120.331086805,
    "緯度Lat": 22.7221515858,
    "資料序號Seq": 37
  },
  {
    "序號": 38,
    "營業主體": "國慶實業股份有限公司",
    "站名": "國慶加油站",
    "行政區": "苓雅區",
    "站址": "高雄市苓雅區中正一路332號",
    "電話號碼": "07-7219612",
    "經度Lng": 120.326301227,
    "緯度Lat": 22.6298946742,
    "資料序號Seq": 38
  },
  {
    "序號": 39,
    "營業主體": "慶昌加油站有限公司",
    "站名": "慶昌加油站",
    "行政區": "楠梓區",
    "站址": "高雄市楠梓區後昌路1196號",
    "電話號碼": "07-3638197",
    "經度Lng": 120.289961527,
    "緯度Lat": 22.7171660395,
    "資料序號Seq": 39
  },
  {
    "序號": 40,
    "營業主體": "統一精工股份有限公司",
    "站名": "統一精工自立加油站",
    "行政區": "三民區",
    "站址": "高雄市三民區自立一路333號",
    "電話號碼": "07-3160612",
    "經度Lng": 120.296284088,
    "緯度Lat": 22.6449831096,
    "資料序號Seq": 40
  },
  {
    "序號": 41,
    "營業主體": "民族加油站有限公司",
    "站名": "民族加油站",
    "行政區": "三民區",
    "站址": "高雄市三民區民族一路418號",
    "電話號碼": "07-3850731",
    "經度Lng": 120.315587549,
    "緯度Lat": 22.6533749959,
    "資料序號Seq": 41
  },
  {
    "序號": 42,
    "營業主體": "博愛加油站股份有限公司",
    "站名": "博愛加油站",
    "行政區": "三民區",
    "站址": "高雄市三民區博愛一路335號",
    "電話號碼": "07-3229254",
    "經度Lng": 120.303064978,
    "緯度Lat": 22.6499796866,
    "資料序號Seq": 42
  },
  {
    "序號": 43,
    "營業主體": "光華加油站有限公司",
    "站名": "光華加油站",
    "行政區": "苓雅區",
    "站址": "高雄市苓雅區三多二路330號",
    "電話號碼": "07-3336168",
    "經度Lng": 120.3167079,
    "緯度Lat": 22.6181951978,
    "資料序號Seq": 43
  },
  {
    "序號": 44,
    "營業主體": "桂林加油站股份有限公司",
    "站名": "桂林加油站",
    "行政區": "小港區",
    "站址": "高雄市小港區孔鳳路579 號",
    "電話號碼": "07-7912420",
    "經度Lng": 120.358620277,
    "緯度Lat": 22.5847182317,
    "資料序號Seq": 44
  },
  {
    "序號": 45,
    "營業主體": "台灣中油股份有限公司",
    "站名": "小港加油站",
    "行政區": "小港區",
    "站址": "高雄市小港區大業北路45號",
    "電話號碼": "07-8023938",
    "經度Lng": 120.344103611,
    "緯度Lat": 22.5676362071,
    "資料序號Seq": 45
  },
  {
    "序號": 46,
    "營業主體": "三民加油站股份有限公司",
    "站名": "三民加油站",
    "行政區": "三民區",
    "站址": "高雄市三民區九如一路878號",
    "電話號碼": "07-3893816",
    "經度Lng": 120.318243172,
    "緯度Lat": 22.6403004649,
    "資料序號Seq": 46
  },
  {
    "序號": 47,
    "營業主體": "大翔開發有限公司",
    "站名": "高楠加油站",
    "行政區": "左營區",
    "站址": "高雄市左營區民族一路697號",
    "電話號碼": "07-3416206",
    "經度Lng": 120.3173052,
    "緯度Lat": 22.671192095,
    "資料序號Seq": 47
  },
  {
    "序號": 48,
    "營業主體": "宏達加油站有限公司",
    "站名": "宏達加油站",
    "行政區": "左營區",
    "站址": "高雄市左營區大中一路443號",
    "電話號碼": "07-3414698",
    "經度Lng": 120.3194115,
    "緯度Lat": 22.6785142003,
    "資料序號Seq": 48
  },
  {
    "序號": 49,
    "營業主體": "英光企業有限公司",
    "站名": "天祥加油站",
    "行政區": "三民區",
    "站址": "高雄市三民區天祥一路99號",
    "電話號碼": "07-3472200",
    "經度Lng": 120.321368536,
    "緯度Lat": 22.6668858602,
    "資料序號Seq": 49
  },
  {
    "序號": 50,
    "營業主體": "加昌加油站股份有限公司",
    "站名": "加昌加油站",
    "行政區": "楠梓區",
    "站址": "高雄市楠梓區加昌路119號",
    "電話號碼": "07-3620448",
    "經度Lng": 120.316628976,
    "緯度Lat": 22.722112355,
    "資料序號Seq": 50
  },
  {
    "序號": 51,
    "營業主體": "統一精工股份有限公司",
    "站名": "統一精工左營加油站",
    "行政區": "左營區",
    "站址": "高雄市左營區民族一路936號",
    "電話號碼": "07-3109485",
    "經度Lng": 120.318412608,
    "緯度Lat": 22.674049758,
    "資料序號Seq": 51
  },
  {
    "序號": 52,
    "營業主體": "全國加油站股份有限公司",
    "站名": "全國北高加油站",
    "行政區": "三民區",
    "站址": "高雄市三民區熱河二街338號",
    "電話號碼": "07-3128969",
    "經度Lng": 120.292456675,
    "緯度Lat": 22.644921137,
    "資料序號Seq": 52
  },
  {
    "序號": 53,
    "營業主體": "松詠有限公司",
    "站名": "新厝左營大路加油站",
    "行政區": "左營區",
    "站址": "高雄市左營區左營大路920號",
    "電話號碼": "07-5850266",
    "經度Lng": 120.301726829,
    "緯度Lat": 22.696973265,
    "資料序號Seq": 53
  },
  {
    "序號": 54,
    "營業主體": "永純鋼鐵股份有限公司",
    "站名": "自由加油站",
    "行政區": "三民區",
    "站址": "高雄市三民區自由一路231號",
    "電話號碼": "07-3863111",
    "經度Lng": 120.308586068,
    "緯度Lat": 22.652271577,
    "資料序號Seq": 54
  },
  {
    "序號": 55,
    "營業主體": "源豐加油站有限公司",
    "站名": "源豐加油站",
    "行政區": "左營區",
    "站址": "高雄市左營區博愛二路616號",
    "電話號碼": "07-5563311",
    "經度Lng": 120.30361594,
    "緯度Lat": 22.66843739,
    "資料序號Seq": 55
  },
  {
    "序號": 56,
    "營業主體": "澄清湖加油站有限公司",
    "站名": "澄清湖加油站",
    "行政區": "三民區",
    "站址": "高雄市三民區九如一路123號",
    "電話號碼": "07-3892166",
    "經度Lng": 120.340989429,
    "緯度Lat": 22.6365301464,
    "資料序號Seq": 56
  },
  {
    "序號": 57,
    "營業主體": "鄉親實業股份有限公司",
    "站名": "大昌路加油站",
    "行政區": "三民區",
    "站址": "高雄市三民區大昌二路299號",
    "電話號碼": "07-3920291",
    "經度Lng": 120.331739946,
    "緯度Lat": 22.6471755569,
    "資料序號Seq": 57
  },
  {
    "序號": 58,
    "營業主體": "裕誠加油站股份有限公司",
    "站名": "裕誠加油站",
    "行政區": "左營區",
    "站址": "高雄市左營區博愛二路402號",
    "電話號碼": "07-5563797",
    "經度Lng": 120.303553687,
    "緯度Lat": 22.6655872113,
    "資料序號Seq": 58
  },
  {
    "序號": 59,
    "營業主體": "左新加油站有限公司",
    "站名": "左新加油站",
    "行政區": "左營區",
    "站址": "高雄市左營區政德路171號",
    "電話號碼": "07-3453500",
    "經度Lng": 120.299367252,
    "緯度Lat": 22.6769208129,
    "資料序號Seq": 59
  },
  {
    "序號": 60,
    "營業主體": "大立加油站有限公司",
    "站名": "大立加油站",
    "行政區": "苓雅區",
    "站址": "高雄市苓雅區凱旋三路657號",
    "電話號碼": "07-7171186",
    "經度Lng": 120.3265142,
    "緯度Lat": 22.6168999998,
    "資料序號Seq": 60
  },
  {
    "序號": 61,
    "營業主體": "威翔加油站有限公司",
    "站名": "新厝十全加油站",
    "行政區": "三民區",
    "站址": "高雄市三民區十全一路11號",
    "電話號碼": "07-3223885",
    "經度Lng": 120.312754818,
    "緯度Lat": 22.6445938633,
    "資料序號Seq": 61
  },
  {
    "序號": 62,
    "營業主體": "前鎮加油站股份有限公司",
    "站名": "鎮海加油站",
    "行政區": "前鎮區",
    "站址": "高雄市前鎮區鎮海路123號",
    "電話號碼": "07-8318524",
    "經度Lng": 120.315257202,
    "緯度Lat": 22.5900665517,
    "資料序號Seq": 62
  },
  {
    "序號": 63,
    "營業主體": "永順加油站股份有限公司",
    "站名": "永順加油站",
    "行政區": "小港區",
    "站址": "高雄市小港區宏平路653號",
    "電話號碼": "07-8064333",
    "經度Lng": 120.352057,
    "緯度Lat": 22.5696739993,
    "資料序號Seq": 63
  },
  {
    "序號": 64,
    "營業主體": "山隆通運股份有限公司",
    "站名": "苓雅加油站",
    "行政區": "苓雅區",
    "站址": "高雄市苓雅區輜汽路69號",
    "電話號碼": "07-7610048",
    "經度Lng": 120.336168861,
    "緯度Lat": 22.616560857,
    "資料序號Seq": 64
  },
  {
    "序號": 65,
    "營業主體": "鹽埕加油站股份有限公司",
    "站名": "鹽埕加油站",
    "行政區": "鹽埕區",
    "站址": "高雄市鹽埕區建國四路311號",
    "電話號碼": "07-5337470",
    "經度Lng": 120.282785758,
    "緯度Lat": 22.6305371722,
    "資料序號Seq": 65
  },
  {
    "序號": 66,
    "營業主體": "援中港加油站有限公司",
    "站名": "援中港加油站",
    "行政區": "楠梓區",
    "站址": "高雄市楠梓區德中路168號",
    "電話號碼": "07-5917813",
    "經度Lng": 120.2766451,
    "緯度Lat": 22.7241686975,
    "資料序號Seq": 66
  },
  {
    "序號": 67,
    "營業主體": "台亞石油股份有限公司",
    "站名": "台亞華盟加油站",
    "行政區": "三民區",
    "站址": "高雄市三民區中華二路372號",
    "電話號碼": "07-3156000",
    "經度Lng": 120.292315389,
    "緯度Lat": 22.6489573308,
    "資料序號Seq": 67
  },
  {
    "序號": 68,
    "營業主體": "許新興加油站有限公司",
    "站名": "德民加油站",
    "行政區": "楠梓區",
    "站址": "高雄市楠梓區德民路899號",
    "電話號碼": "07-3652329",
    "經度Lng": 120.290214718,
    "緯度Lat": 22.7211226597,
    "資料序號Seq": 68
  },
  {
    "序號": 69,
    "營業主體": "桂華加油站股份有限公司",
    "站名": "桂華加油站",
    "行政區": "左營區",
    "站址": "高雄市左營區博愛四路19號",
    "電話號碼": "07-3416037",
    "經度Lng": 120.310578568,
    "緯度Lat": 22.6818189695,
    "資料序號Seq": 69
  },
  {
    "序號": 70,
    "營業主體": "台亞石油股份有限公司",
    "站名": "台亞大業加油站",
    "行政區": "前鎮區",
    "站址": "高雄市前鎮區凱旋四路560號",
    "電話號碼": "07-8216871",
    "經度Lng": 120.31800436,
    "緯度Lat": 22.5968875915,
    "資料序號Seq": 70
  },
  {
    "序號": 71,
    "營業主體": "金獅湖企業股份有限公司",
    "站名": "金獅湖加油站",
    "行政區": "三民區",
    "站址": "高雄市三民區鼎力路410號",
    "電話號碼": "07-3425279",
    "經度Lng": 120.326085372,
    "緯度Lat": 22.6696389594,
    "資料序號Seq": 71
  },
  {
    "序號": 72,
    "營業主體": "統一精工股份有限公司",
    "站名": "統一精工小港加油站",
    "行政區": "小港區",
    "站址": "高雄市小港區高鳳路102號",
    "電話號碼": "07-8020221",
    "經度Lng": 120.3711451,
    "緯度Lat": 22.5761296998,
    "資料序號Seq": 72
  },
  {
    "序號": 73,
    "營業主體": "桂宏加油站股份有限公司",
    "站名": "桂宏加油站",
    "行政區": "小港區",
    "站址": "高雄市小港區小港路75號",
    "電話號碼": "07-8019668",
    "經度Lng": 120.341735064,
    "緯度Lat": 22.5653055544,
    "資料序號Seq": 73
  },
  {
    "序號": 74,
    "營業主體": "全國加油站股份有限公司",
    "站名": "全國小港機場加油站",
    "行政區": "小港區",
    "站址": "高雄市小港區大業北路29號",
    "電話號碼": "07-8033762",
    "經度Lng": 120.345920678,
    "緯度Lat": 22.5652503654,
    "資料序號Seq": 74
  },
  {
    "序號": 75,
    "營業主體": "台灣糖業股份有限公司",
    "站名": "台糖成功加油站",
    "行政區": "前鎮區",
    "站址": "高雄市前鎮區成功二路2之2號",
    "電話號碼": "07-8213087",
    "經度Lng": 120.304709,
    "緯度Lat": 22.5968990732,
    "資料序號Seq": 75
  },
  {
    "序號": 76,
    "營業主體": "台灣糖業股份有限公司",
    "站名": "台糖中華加油站",
    "行政區": "前鎮區",
    "站址": "高雄市前鎮區中華五路825號",
    "電話號碼": "07-8116957",
    "經度Lng": 120.30754469,
    "緯度Lat": 22.5978474873,
    "資料序號Seq": 76
  },
  {
    "序號": 77,
    "營業主體": "台灣糖業股份有限公司",
    "站名": "台糖民族二加油站",
    "行政區": "楠梓區",
    "站址": "高雄市楠梓區高楠公路945號",
    "電話號碼": "07-3534932",
    "經度Lng": 120.325110285,
    "緯度Lat": 22.7118746456,
    "資料序號Seq": 77
  },
  {
    "序號": 78,
    "營業主體": "台灣糖業股份有限公司",
    "站名": "台糖加昌加油站",
    "行政區": "楠梓區",
    "站址": "高雄市楠梓區加昌路637號",
    "電話號碼": "07-3661625",
    "經度Lng": 120.298527497,
    "緯度Lat": 22.7152169983,
    "資料序號Seq": 78
  },
  {
    "序號": 79,
    "營業主體": "全國加油站股份有限公司",
    "站名": "全國三多路加油站",
    "行政區": "苓雅區",
    "站址": "高雄市苓雅區三多二路197號",
    "電話號碼": "07-7516401",
    "經度Lng": 120.32258913,
    "緯度Lat": 22.6196560184,
    "資料序號Seq": 79
  },
  {
    "序號": 80,
    "營業主體": "金獅加油站有限公司",
    "站名": "金獅加油站",
    "行政區": "三民區",
    "站址": "高雄市三民區鼎力路36 號",
    "電話號碼": "07-3508152",
    "經度Lng": 120.322080388,
    "緯度Lat": 22.6628663162,
    "資料序號Seq": 80
  },
  {
    "序號": 81,
    "營業主體": "山隆通運股份有限公司",
    "站名": "山隆加油站",
    "行政區": "小港區",
    "站址": "高雄市小港區沿海三路26之3號",
    "電話號碼": "07-8716691",
    "經度Lng": 120.368300856,
    "緯度Lat": 22.5263614178,
    "資料序號Seq": 81
  },
  {
    "序號": "",
    "營業主體": "",
    "站名": "",
    "行政區": "",
    "站址": "",
    "電話號碼": "#62",
    "經度Lng": "",
    "緯度Lat": "",
    "資料序號Seq": 82
  },
  {
    "序號": 82,
    "營業主體": "富誠加油站股份有限公司",
    "站名": "永豐加油站",
    "行政區": "前鎮區",
    "站址": "高雄市前鎮區永豐路229號",
    "電話號碼": "07-7215215",
    "經度Lng": 120.332969553,
    "緯度Lat": 22.6084560821,
    "資料序號Seq": 83
  },
  {
    "序號": 83,
    "營業主體": "西歐加油站股份有限公司",
    "站名": "華夏加油站",
    "行政區": "左營區",
    "站址": "高雄市左營區華夏路1162號",
    "電話號碼": "07-3502692",
    "經度Lng": 120.309076563,
    "緯度Lat": 22.6838280689,
    "資料序號Seq": 84
  },
  {
    "序號": 84,
    "營業主體": "大眾加油站有限公司",
    "站名": "大眾加油站",
    "行政區": "苓雅區",
    "站址": "高雄市苓雅區中山二路497號",
    "電話號碼": "07-5370069",
    "經度Lng": 120.301882225,
    "緯度Lat": 22.6197089081,
    "資料序號Seq": 85
  },
  {
    "序號": 85,
    "營業主體": "亞太國際物流股份有限公司",
    "站名": "亞柏小港加油站",
    "行政區": "小港區",
    "站址": "高雄市小港區東亞路2號",
    "電話號碼": "07-8133991",
    "經度Lng": 120.326914817,
    "緯度Lat": 22.5655485955,
    "資料序號Seq": 86
  },
  {
    "序號": 86,
    "營業主體": "雄菱股份有限公司",
    "站名": "雄菱加油站",
    "行政區": "前鎮區",
    "站址": "高雄市前鎮區新生路210號",
    "電話號碼": "07-8115010",
    "經度Lng": 120.312884899,
    "緯度Lat": 22.5804324277,
    "資料序號Seq": 87
  },
  {
    "序號": 87,
    "營業主體": "高都加油站企業有限公司",
    "站名": "高都加油站",
    "行政區": "前鎮區",
    "站址": "高雄市前鎮區金福路80號",
    "電話號碼": "07-8110220",
    "經度Lng": 120.32850241,
    "緯度Lat": 22.5721421444,
    "資料序號Seq": 88
  },
  {
    "序號": 88,
    "營業主體": "台灣中油股份有限公司",
    "站名": "南一路加油站",
    "行政區": "前鎮區",
    "站址": "高雄市前鎮區漁港南一路19之1號",
    "電話號碼": "07-8153105",
    "經度Lng": 120.317810447,
    "緯度Lat": 22.5683666509,
    "資料序號Seq": 89
  },
  {
    "序號": 89,
    "營業主體": "台灣糖業股份有限公司",
    "站名": "台糖博學加油站",
    "行政區": "小港區",
    "站址": "高雄市小港區博學路481號",
    "電話號碼": "07-8027879",
    "經度Lng": 120.370573734,
    "緯度Lat": 22.5632909052,
    "資料序號Seq": 90
  },
  {
    "序號": 90,
    "營業主體": "新翔加油站有限公司",
    "站名": "新厝博愛加油站",
    "行政區": "鼓山區",
    "站址": "高雄市鼓山區博愛一路536號",
    "電話號碼": "07-5585266",
    "經度Lng": 120.303646967,
    "緯度Lat": 22.6555633162,
    "資料序號Seq": 91
  },
  {
    "序號": 91,
    "營業主體": "全國加油站股份有限公司",
    "站名": "全國九如交流道加油站",
    "行政區": "三民區",
    "站址": "高雄市三民區九如一路469號",
    "電話號碼": "07-3871291",
    "經度Lng": 120.329277352,
    "緯度Lat": 22.638721348,
    "資料序號Seq": 92
  },
  {
    "序號": 92,
    "營業主體": "松詠有限公司",
    "站名": "新厝自由加油站",
    "行政區": "三民區",
    "站址": "高雄市三民區自由一路276號",
    "電話號碼": "07-3803366",
    "經度Lng": 120.308810779,
    "緯度Lat": 22.6535802317,
    "資料序號Seq": 93
  },
  {
    "序號": 93,
    "營業主體": "新厝加油站股份有限公司",
    "站名": "新厝六站加油站",
    "行政區": "鼓山區",
    "站址": "高雄市鼓山區明誠三路639號",
    "電話號碼": "07-5555570",
    "經度Lng": 120.296533443,
    "緯度Lat": 22.6609084424,
    "資料序號Seq": 94
  },
  {
    "序號": 94,
    "營業主體": "上豐加油站股份有限公司",
    "站名": "上豐加油站",
    "行政區": "左營區",
    "站址": "高雄市左營區自由三路157號",
    "電話號碼": "07-3452235",
    "經度Lng": 120.31012139,
    "緯度Lat": 22.6700263516,
    "資料序號Seq": 95
  },
  {
    "序號": 95,
    "營業主體": "楠都加油站股份有限公司",
    "站名": "楠都加油站",
    "行政區": "楠梓區",
    "站址": "高雄市楠梓區楠陽路115號",
    "電話號碼": "07-3559665",
    "經度Lng": 120.330186871,
    "緯度Lat": 22.7236723397,
    "資料序號Seq": 96
  },
  {
    "序號": 96,
    "營業主體": "松詠有限公司",
    "站名": "新厝高鳳加油站",
    "行政區": "小港區",
    "站址": "高雄市小港區高鳳路272號",
    "電話號碼": "07-7932588",
    "經度Lng": 120.371737714,
    "緯度Lat": 22.5776427402,
    "資料序號Seq": 97
  },
  {
    "序號": 97,
    "營業主體": "全國加油站股份有限公司",
    "站名": "全國高雄大順加油站",
    "行政區": "三民區",
    "站址": "高雄市三民區大順二路856號",
    "電話號碼": "07-3925722",
    "經度Lng": 120.316282509,
    "緯度Lat": 22.6555002245,
    "資料序號Seq": 98
  },
  {
    "序號": 98,
    "營業主體": "台灣中油股份有限公司",
    "站名": "大林加油站",
    "行政區": "小港區",
    "站址": "高雄市小港區鳳華路1號",
    "電話號碼": "07-8714612",
    "經度Lng": 120.34974787,
    "緯度Lat": 22.5246174663,
    "資料序號Seq": 99
  },
  {
    "序號": 99,
    "營業主體": "福懋興業股份有限公司",
    "站名": "福懋大順加油站",
    "行政區": "三民區",
    "站址": "高雄市三民區大順二路808號",
    "電話號碼": "07-3837879",
    "經度Lng": 120.317459267,
    "緯度Lat": 22.654866745,
    "資料序號Seq": 100
  },
  {
    "序號": 100,
    "營業主體": "台灣中油股份有限公司",
    "站名": "左楠加油加氣站",
    "行政區": "楠梓區",
    "站址": "高雄市楠梓區左楠路2-1號",
    "電話號碼": "07-5888562",
    "經度Lng": 120.303839907,
    "緯度Lat": 22.7007000742,
    "資料序號Seq": 101
  },
  {
    "序號": 101,
    "營業主體": "滿溢股份有限公司",
    "站名": "九大加油站",
    "行政區": "大樹區",
    "站址": "高雄市大樹區竹寮路114之20號",
    "電話號碼": "07-6519991",
    "經度Lng": 120.425228852,
    "緯度Lat": 22.6591624992,
    "資料序號Seq": 102
  },
  {
    "序號": 102,
    "營業主體": "台灣中油股份有限公司",
    "站名": "九曲堂加油站",
    "行政區": "大寮區",
    "站址": "高雄市大寮區鳳屏二路297號",
    "電話號碼": "07-6512175",
    "經度Lng": 120.417746878,
    "緯度Lat": 22.6423508377,
    "資料序號Seq": 103
  },
  {
    "序號": 103,
    "營業主體": "北嶺加油站有限公司",
    "站名": "北嶺加油站",
    "行政區": "岡山區",
    "站址": "高雄市岡山區岡山北路246號",
    "電話號碼": "07-6210387",
    "經度Lng": 120.272099609,
    "緯度Lat": 22.8190836303,
    "資料序號Seq": 104
  },
  {
    "序號": 104,
    "營業主體": "統一精工股份有限公司",
    "站名": "統一精工路竹加油站",
    "行政區": "路竹區",
    "站址": "高雄市路竹區環球路305號",
    "電話號碼": "07-6965238",
    "經度Lng": 120.269450406,
    "緯度Lat": 22.8799834863,
    "資料序號Seq": 105
  },
  {
    "序號": 105,
    "營業主體": "美林加油站股份有限公司",
    "站名": "美林加油站",
    "行政區": "旗山區",
    "站址": "高雄市旗山區延平二路114號",
    "電話號碼": "07-6616525",
    "經度Lng": 120.495087899,
    "緯度Lat": 22.882543899,
    "資料序號Seq": 106
  },
  {
    "序號": 106,
    "營業主體": "統一精工股份有限公司",
    "站名": "祥永加油站",
    "行政區": "岡山區",
    "站址": "高雄市岡山區介壽東路10號",
    "電話號碼": "07-6262721",
    "經度Lng": 120.314604037,
    "緯度Lat": 22.7868000345,
    "資料序號Seq": 107
  },
  {
    "序號": 107,
    "營業主體": "雙泰加油站股份有限公司",
    "站名": "雙泰加油站",
    "行政區": "大社區",
    "站址": "高雄市大社區旗楠路8號",
    "電話號碼": "07-3512613",
    "經度Lng": 120.339370623,
    "緯度Lat": 22.7422662627,
    "資料序號Seq": 108
  },
  {
    "序號": 108,
    "營業主體": "統一精工股份有限公司",
    "站名": "統一精工旗楠加油站",
    "行政區": "燕巢區",
    "站址": "高雄市燕巢區鳳東路86號",
    "電話號碼": "07-6154966",
    "經度Lng": 120.364497025,
    "緯度Lat": 22.7600645016,
    "資料序號Seq": 109
  },
  {
    "序號": 109,
    "營業主體": "上源加油站股份有限公司",
    "站名": "上源加油站",
    "行政區": "鳳山區",
    "站址": "高雄市鳳山區鳳林路91號",
    "電話號碼": "07-7013934",
    "經度Lng": 120.37471817,
    "緯度Lat": 22.6228233056,
    "資料序號Seq": 110
  },
  {
    "序號": 110,
    "營業主體": "鳳東路加油站有限公司",
    "站名": "鳳東路加油站",
    "行政區": "燕巢區",
    "站址": "高雄市燕巢區鳳東路77號",
    "電話號碼": "07-6151778",
    "經度Lng": 120.365177592,
    "緯度Lat": 22.7593857582,
    "資料序號Seq": 111
  },
  {
    "序號": 111,
    "營業主體": "美林加油站股份有限公司",
    "站名": "宏洋加油站",
    "行政區": "旗山區",
    "站址": "高雄市旗山區旗南二路87之6號",
    "電話號碼": "07-6664389",
    "經度Lng": 120.463855713,
    "緯度Lat": 22.8410671579,
    "資料序號Seq": 112
  },
  {
    "序號": 112,
    "營業主體": "彌陀加油站股份有限公司",
    "站名": "彌陀加油站",
    "行政區": "彌陀區",
    "站址": "高雄市彌陀區鹽埕大路138號",
    "電話號碼": "07-6170287",
    "經度Lng": 120.245715772,
    "緯度Lat": 22.7904643097,
    "資料序號Seq": 113
  },
  {
    "序號": 113,
    "營業主體": "北岡山加油站股份有限公司",
    "站名": "北岡山加油站",
    "行政區": "岡山區",
    "站址": "高雄市岡山區岡山北路271號",
    "電話號碼": "07-6210387",
    "經度Lng": 120.271581068,
    "緯度Lat": 22.8186998156,
    "資料序號Seq": 114
  },
  {
    "序號": 114,
    "營業主體": "振裕加油站股份有限公司",
    "站名": "振裕加油站",
    "行政區": "旗山區",
    "站址": "高雄市旗山區延平一路115號",
    "電話號碼": "07-6622360",
    "經度Lng": 120.483047608,
    "緯度Lat": 22.8982339786,
    "資料序號Seq": 115
  },
  {
    "序號": 115,
    "營業主體": "新光加油站有限公司",
    "站名": "新光加油站",
    "行政區": "旗山區",
    "站址": "高雄市旗山區旗南三路120之8號",
    "電話號碼": "07-6662988",
    "經度Lng": 120.462254817,
    "緯度Lat": 22.8243229136,
    "資料序號Seq": 116
  },
  {
    "序號": 116,
    "營業主體": "明月潭加油站股份有限公司",
    "站名": "明月潭加油站",
    "行政區": "大寮區",
    "站址": "高雄市大寮區內坑路158之6號",
    "電話號碼": "07-7920185",
    "經度Lng": 120.388560299,
    "緯度Lat": 22.5961469988,
    "資料序號Seq": 117
  },
  {
    "序號": 117,
    "營業主體": "前鋒加油站股份有限公司",
    "站名": "前鋒加油站",
    "行政區": "岡山區",
    "站址": "高雄市岡山區前鋒路238號",
    "電話號碼": "07-6258122",
    "經度Lng": 120.280930899,
    "緯度Lat": 22.8017594029,
    "資料序號Seq": 118
  },
  {
    "序號": 118,
    "營業主體": "恆通加油站股份有限公司",
    "站名": "恆通加油站",
    "行政區": "大寮區",
    "站址": "高雄市大寮區鳳屏二路130號",
    "電話號碼": "07-7030197",
    "經度Lng": 120.411989811,
    "緯度Lat": 22.640945766,
    "資料序號Seq": 119
  },
  {
    "序號": 119,
    "營業主體": "台亞石油股份有限公司",
    "站名": "台亞台上加油站",
    "行政區": "岡山區",
    "站址": "高雄市岡山區成功路269號",
    "電話號碼": "07-6214518",
    "經度Lng": 120.29876021,
    "緯度Lat": 22.8085271713,
    "資料序號Seq": 120
  },
  {
    "序號": 120,
    "營業主體": "福記加油站有限公司",
    "站名": "福記加油站",
    "行政區": "永安區",
    "站址": "高雄市永安區保安路248號",
    "電話號碼": "07-6910269",
    "經度Lng": 120.234630182,
    "緯度Lat": 22.8385492568,
    "資料序號Seq": 121
  },
  {
    "序號": 121,
    "營業主體": "大社加油站股份有限公司",
    "站名": "大社加油站",
    "行政區": "大社區",
    "站址": "高雄市大社區中山路9號",
    "電話號碼": "07-3530343",
    "經度Lng": 120.341375363,
    "緯度Lat": 22.7322905634,
    "資料序號Seq": 122
  },
  {
    "序號": 122,
    "營業主體": "統一精工股份有限公司",
    "站名": "統一精工路竹二站加油站",
    "行政區": "路竹區",
    "站址": "高雄市路竹區環球路200號",
    "電話號碼": "07-6967422",
    "經度Lng": 120.274440262,
    "緯度Lat": 22.8799804131,
    "資料序號Seq": 123
  },
  {
    "序號": 123,
    "營業主體": "保來加油站實業有限公司",
    "站名": "保來加油站",
    "行政區": "六龜區",
    "站址": "高雄市六龜區寶建路4號",
    "電話號碼": "07-6881565",
    "經度Lng": 120.682983343,
    "緯度Lat": 23.0974379227,
    "資料序號Seq": 124
  },
  {
    "序號": 124,
    "營業主體": "鳳仁加油站有限公司",
    "站名": "鳳仁加油站",
    "行政區": "仁武區",
    "站址": "高雄市仁武區鳳仁路177號",
    "電話號碼": "07-3723933",
    "經度Lng": 120.348339733,
    "緯度Lat": 22.6948739751,
    "資料序號Seq": 125
  },
  {
    "序號": 125,
    "營業主體": "群發加油站有限公司",
    "站名": "群發加油站",
    "行政區": "大樹區",
    "站址": "高雄市大樹區中正一路382號",
    "電話號碼": "07-6525257",
    "經度Lng": 120.434899758,
    "緯度Lat": 22.6934971124,
    "資料序號Seq": 126
  },
  {
    "序號": 126,
    "營業主體": "元鐘加油站有限公司",
    "站名": "元鐘加油站",
    "行政區": "岡山區",
    "站址": "高雄市岡山區為隨西路16號",
    "電話號碼": "07-6222818",
    "經度Lng": 120.291138909,
    "緯度Lat": 22.8130008411,
    "資料序號Seq": 127
  },
  {
    "序號": 127,
    "營業主體": "水美加油站有限公司",
    "站名": "水美加油站",
    "行政區": "鳥松區",
    "站址": "高雄市鳥松區北平路49號",
    "電話號碼": "07-7338333",
    "經度Lng": 120.399303033,
    "緯度Lat": 22.6586485597,
    "資料序號Seq": 128
  },
  {
    "序號": 128,
    "營業主體": "祥發加油站有限公司",
    "站名": "祥發加油站",
    "行政區": "大寮區",
    "站址": "高雄市大寮區光華路430號",
    "電話號碼": "07-7874351",
    "經度Lng": 120.409247799,
    "緯度Lat": 22.5822381413,
    "資料序號Seq": 129
  },
  {
    "序號": 129,
    "營業主體": "統一精工股份有限公司",
    "站名": "統一精工大發加油站",
    "行政區": "大寮區",
    "站址": "高雄市大寮區光明路三段1號",
    "電話號碼": "07-7814306",
    "經度Lng": 120.413031417,
    "緯度Lat": 22.6121736659,
    "資料序號Seq": 130
  },
  {
    "序號": 130,
    "營業主體": "山隆通運股份有限公司",
    "站名": "山隆仁武加油站",
    "行政區": "仁武區",
    "站址": "高雄市仁武區仁林路153號",
    "電話號碼": "07-3742562",
    "經度Lng": 120.370884965,
    "緯度Lat": 22.6975645767,
    "資料序號Seq": 131
  },
  {
    "序號": 131,
    "營業主體": "大來加油站股份有限公司",
    "站名": "大來加油站",
    "行政區": "大寮區",
    "站址": "高雄市大寮區大漢路330號",
    "電話號碼": "07-7024101",
    "經度Lng": 120.382859512,
    "緯度Lat": 22.6367652173,
    "資料序號Seq": 132
  },
  {
    "序號": 132,
    "營業主體": "甲洲加油站股份有限公司",
    "站名": "甲洲加油站",
    "行政區": "鳳山區",
    "站址": "高雄市鳳山區五甲二路73號",
    "電話號碼": "07-7669129",
    "經度Lng": 120.34345167,
    "緯度Lat": 22.6028213507,
    "資料序號Seq": 133
  },
  {
    "序號": 133,
    "營業主體": "大益加油站",
    "站名": "大益加油站",
    "行政區": "大寮區",
    "站址": "高雄市大寮區鳳林一路502號",
    "電話號碼": "07-6418873",
    "經度Lng": 120.412439001,
    "緯度Lat": 22.548325571,
    "資料序號Seq": 134
  },
  {
    "序號": 134,
    "營業主體": "璽田有限公司",
    "站名": "璽田加油站",
    "行政區": "阿蓮區",
    "站址": "高雄市阿蓮區中正路960號",
    "電話號碼": "07-6317789",
    "經度Lng": 120.321180308,
    "緯度Lat": 22.8806318458,
    "資料序號Seq": 135
  },
  {
    "序號": 135,
    "營業主體": "永晉加油站有限公司",
    "站名": "永晉加油站",
    "行政區": "林園區",
    "站址": "高雄市林園區中芸三路300號",
    "電話號碼": "07-6426327",
    "經度Lng": 120.398544356,
    "緯度Lat": 22.4956741283,
    "資料序號Seq": 136
  },
  {
    "序號": 136,
    "營業主體": "泓成加油站有限公司",
    "站名": "泓成加油站",
    "行政區": "大寮區",
    "站址": "高雄市大寮區鳳林二路621號",
    "電話號碼": "07-7879010",
    "經度Lng": 120.402890361,
    "緯度Lat": 22.5911920336,
    "資料序號Seq": 137
  },
  {
    "序號": 137,
    "營業主體": "小坪頂加油站有限公司",
    "站名": "小坪頂加油站",
    "行政區": "大樹區",
    "站址": "高雄市大樹區小坪路93之8號",
    "電話號碼": "07-6527597",
    "經度Lng": 120.409538865,
    "緯度Lat": 22.6813413778,
    "資料序號Seq": 138
  },
  {
    "序號": 138,
    "營業主體": "江山加油站企業股份有限公司",
    "站名": "江山加油站",
    "行政區": "大寮區",
    "站址": "高雄市大寮區鳳屏二路46號",
    "電話號碼": "07-7017334",
    "經度Lng": 120.40569145,
    "緯度Lat": 22.6399027864,
    "資料序號Seq": 139
  },
  {
    "序號": 139,
    "營業主體": "全國加油站股份有限公司",
    "站名": "全國鳥松加油站",
    "行政區": "鳥松區",
    "站址": "高雄市鳥松區美山路121號",
    "電話號碼": "07-7335997",
    "經度Lng": 120.391585916,
    "緯度Lat": 22.6502713125,
    "資料序號Seq": 140
  },
  {
    "序號": 140,
    "營業主體": "統一精工股份有限公司",
    "站名": "統一精工燕巢加油站",
    "行政區": "燕巢區",
    "站址": "高雄市燕巢區安北路25號",
    "電話號碼": "07-6169001",
    "經度Lng": 120.350094132,
    "緯度Lat": 22.7920743979,
    "資料序號Seq": 141
  },
  {
    "序號": 141,
    "營業主體": "靖海加油站股份有限公司",
    "站名": "靖海加油站",
    "行政區": "大社區",
    "站址": "高雄市大社區中山路665之20號",
    "電話號碼": "07-3535657",
    "經度Lng": 120.35988407,
    "緯度Lat": 22.7308323564,
    "資料序號Seq": 142
  },
  {
    "序號": 142,
    "營業主體": "鯨世界國際股份有限公司",
    "站名": "鯨世界五甲加油站",
    "行政區": "鳳山區",
    "站址": "高雄市鳳山區五甲二路138號",
    "電話號碼": "07-7662589",
    "經度Lng": 120.342837832,
    "緯度Lat": 22.6031521648,
    "資料序號Seq": 143
  },
  {
    "序號": 143,
    "營業主體": "台亞石油股份有限公司",
    "站名": "台亞大舍甲加油站",
    "行政區": "梓官區",
    "站址": "高雄市梓官區和平路2號",
    "電話號碼": "07-6106129",
    "經度Lng": 120.262037637,
    "緯度Lat": 22.7533628515,
    "資料序號Seq": 144
  },
  {
    "序號": 144,
    "營業主體": "瑔發加油站有限公司",
    "站名": "瑔發加油站",
    "行政區": "大寮區",
    "站址": "高雄市大寮區光明路一段1155號",
    "電話號碼": "07-7874885",
    "經度Lng": 120.421203775,
    "緯度Lat": 22.5797493076,
    "資料序號Seq": 145
  },
  {
    "序號": 145,
    "營業主體": "筧橋加油站股份有限公司",
    "站名": "筧橋加油站",
    "行政區": "岡山區",
    "站址": "高雄市岡山區介壽西路427之1號",
    "電話號碼": "07-6269076",
    "經度Lng": 120.273266907,
    "緯度Lat": 22.7824739992,
    "資料序號Seq": 146
  },
  {
    "序號": 146,
    "營業主體": "今順加油站股份有限公司",
    "站名": "今順加油站",
    "行政區": "仁武區",
    "站址": "高雄市仁武區仁雄路500號",
    "電話號碼": "07-3742198",
    "經度Lng": 120.331621382,
    "緯度Lat": 22.6728837309,
    "資料序號Seq": 147
  },
  {
    "序號": 147,
    "營業主體": "全國加油站股份有限公司",
    "站名": "全國大寮加油站",
    "行政區": "大寮區",
    "站址": "高雄市大寮區鳳林四路398號",
    "電話號碼": "07-7860388",
    "經度Lng": 120.381336819,
    "緯度Lat": 22.6209318173,
    "資料序號Seq": 148
  },
  {
    "序號": 148,
    "營業主體": "柳橋加油站股份有限公司",
    "站名": "柳橋加油站",
    "行政區": "岡山區",
    "站址": "高雄市岡山區通校路167號",
    "電話號碼": "07-6261710",
    "經度Lng": 120.280734407,
    "緯度Lat": 22.7903030349,
    "資料序號Seq": 149
  },
  {
    "序號": 149,
    "營業主體": "全國加油站股份有限公司",
    "站名": "全國鳳屏加油站",
    "行政區": "大寮區",
    "站址": "高雄市大寮區鳳屏一路810號",
    "電話號碼": "07-7014976",
    "經度Lng": 120.401226462,
    "緯度Lat": 22.638980025,
    "資料序號Seq": 150
  },
  {
    "序號": 150,
    "營業主體": "興達港加油站股份有限公司",
    "站名": "興達港加油站",
    "行政區": "湖內區",
    "站址": "高雄市湖內區東方路678號",
    "電話號碼": "07-6991366",
    "經度Lng": 120.221474954,
    "緯度Lat": 22.876898778,
    "資料序號Seq": 151
  },
  {
    "序號": 151,
    "營業主體": "統一精工股份有限公司",
    "站名": "統一精工鳥松二站加油站",
    "行政區": "鳥松區",
    "站址": "高雄市鳥松區中正路100之3號",
    "電話號碼": "07-7327431",
    "經度Lng": 120.364086525,
    "緯度Lat": 22.6607978092,
    "資料序號Seq": 152
  },
  {
    "序號": 152,
    "營業主體": "聯合太子國際股份有限公司",
    "站名": "聯合太子阿蓮加油站",
    "行政區": "阿蓮區",
    "站址": "高雄市阿蓮區和平路256號",
    "電話號碼": "07-6321828",
    "經度Lng": 120.333788242,
    "緯度Lat": 22.8863289179,
    "資料序號Seq": 153
  },
  {
    "序號": 153,
    "營業主體": "東昇加油站有限公司",
    "站名": "東昇加油站",
    "行政區": "美濃區",
    "站址": "高雄市美濃區忠孝路一段７號",
    "電話號碼": "07-6818508",
    "經度Lng": 120.530693909,
    "緯度Lat": 22.8858932917,
    "資料序號Seq": 154
  },
  {
    "序號": 154,
    "營業主體": "樺興加油站有限公司",
    "站名": "樺興加油站",
    "行政區": "永安區",
    "站址": "高雄市永安區維新路18之13號",
    "電話號碼": "07-6911706",
    "經度Lng": 120.251351733,
    "緯度Lat": 22.8086704984,
    "資料序號Seq": 155
  },
  {
    "序號": 155,
    "營業主體": "統一精工股份有限公司",
    "站名": "統一精工鳳山加油站",
    "行政區": "大寮區",
    "站址": "高雄市大寮區鳳屏一路112號",
    "電話號碼": "07-7022499",
    "經度Lng": 120.386118894,
    "緯度Lat": 22.631557754,
    "資料序號Seq": 156
  },
  {
    "序號": 156,
    "營業主體": "灣內加油站有限公司",
    "站名": "灣內加油站",
    "行政區": "仁武區",
    "站址": "高雄市仁武區澄觀路一段80號1樓",
    "電話號碼": "07-3745816",
    "經度Lng": 120.355342645,
    "緯度Lat": 22.6869667142,
    "資料序號Seq": 157
  },
  {
    "序號": 157,
    "營業主體": "美林加油站股份有限公司",
    "站名": "洋洋加油站",
    "行政區": "旗山區",
    "站址": "高雄市旗山區延平二路159號",
    "電話號碼": "07-6611230",
    "經度Lng": 120.49674249,
    "緯度Lat": 22.8836044177,
    "資料序號Seq": 158
  },
  {
    "序號": 158,
    "營業主體": "福懋興業股份有限公司",
    "站名": "福懋仁武加油站",
    "行政區": "仁武區",
    "站址": "高雄市仁武區鳳仁路76號",
    "電話號碼": "07-3740586",
    "經度Lng": 120.354373668,
    "緯度Lat": 22.6839622729,
    "資料序號Seq": 159
  },
  {
    "序號": 159,
    "營業主體": "再生加油站有限公司",
    "站名": "再生加油站",
    "行政區": "路竹區",
    "站址": "高雄市路竹區復興路213號",
    "電話號碼": "07-6076490",
    "經度Lng": 120.272887618,
    "緯度Lat": 22.8485818242,
    "資料序號Seq": 160
  },
  {
    "序號": 160,
    "營業主體": "統一精工股份有限公司",
    "站名": "統一精工鳥松一站加油站",
    "行政區": "鳥松區",
    "站址": "高雄市鳥松區神農路267號",
    "電話號碼": "07-7321585",
    "經度Lng": 120.372856387,
    "緯度Lat": 22.6597315279,
    "資料序號Seq": 161
  },
  {
    "序號": 161,
    "營業主體": "福懋興業股份有限公司",
    "站名": "福懋大寮加油站",
    "行政區": "大寮區",
    "站址": "高雄市大寮區仁德路一段1號",
    "電話號碼": "07-7885601",
    "經度Lng": 120.40311093,
    "緯度Lat": 22.5918927444,
    "資料序號Seq": 162
  },
  {
    "序號": 162,
    "營業主體": "久井企業股份有限公司",
    "站名": "久井美濃加油站",
    "行政區": "美濃區",
    "站址": "高雄市美濃區中山路二段15號",
    "電話號碼": "07-6810989",
    "經度Lng": 120.527843405,
    "緯度Lat": 22.9007573284,
    "資料序號Seq": 163
  },
  {
    "序號": 163,
    "營業主體": "大倫加油站有限公司",
    "站名": "大倫加油站",
    "行政區": "大寮區",
    "站址": "高雄市大寮區光明路三段1080號",
    "電話號碼": "07-7016765",
    "經度Lng": 120.406477634,
    "緯度Lat": 22.6322270752,
    "資料序號Seq": 164
  },
  {
    "序號": 164,
    "營業主體": "千越加油站實業股份有限公司",
    "站名": "千越路竹加油站",
    "行政區": "湖內區",
    "站址": "高雄市湖內區中山路一段152號",
    "電話號碼": "07-6938689",
    "經度Lng": 120.250649976,
    "緯度Lat": 22.8803273983,
    "資料序號Seq": 165
  },
  {
    "序號": 165,
    "營業主體": "山隆通運股份有限公司",
    "站名": "山隆岡山加油站",
    "行政區": "燕巢區",
    "站址": "高雄市燕巢區安招路683號",
    "電話號碼": "07-6163078",
    "經度Lng": 120.324038849,
    "緯度Lat": 22.7885102155,
    "資料序號Seq": 166
  },
  {
    "序號": 166,
    "營業主體": "伊比加油站有限公司",
    "站名": "伊比加油站",
    "行政區": "那瑪夏區",
    "站址": "高雄市那瑪夏區大光巷188號",
    "電話號碼": "07-6701738",
    "經度Lng": 120.719202521,
    "緯度Lat": 23.2739179731,
    "資料序號Seq": 167
  },
  {
    "序號": 167,
    "營業主體": "福懋興業股份有限公司",
    "站名": "福懋岡山加油站",
    "行政區": "岡山區",
    "站址": "高雄市岡山區岡燕路599號",
    "電話號碼": "07-6210322",
    "經度Lng": 120.31357848,
    "緯度Lat": 22.7892557198,
    "資料序號Seq": 168
  },
  {
    "序號": 168,
    "營業主體": "千越加油站實業股份有限公司",
    "站名": "千越梓官加油站",
    "行政區": "梓官區",
    "站址": "高雄市梓官區大舍南路238號",
    "電話號碼": "07-6195188",
    "經度Lng": 120.263275935,
    "緯度Lat": 22.740617145,
    "資料序號Seq": 169
  },
  {
    "序號": 169,
    "營業主體": "久井企業股份有限公司",
    "站名": "久井旗山交流道吉加油站",
    "行政區": "旗山區",
    "站址": "高雄市旗山區旗屏路17號",
    "電話號碼": "07-6611586",
    "經度Lng": 120.493437262,
    "緯度Lat": 22.8695781875,
    "資料序號Seq": 170
  },
  {
    "序號": 170,
    "營業主體": "久井企業股份有限公司",
    "站名": "久井旗山交流道如加油站",
    "行政區": "旗山區",
    "站址": "高雄市旗山區旗屏一路118號",
    "電話號碼": "07-6628658",
    "經度Lng": 120.494653272,
    "緯度Lat": 22.8697182187,
    "資料序號Seq": 171
  },
  {
    "序號": 171,
    "營業主體": "久井企業股份有限公司",
    "站名": "久井旗山交流道意加油站",
    "行政區": "旗山區",
    "站址": "高雄市旗山區旗屏一路319號",
    "電話號碼": "07-6626778",
    "經度Lng": 120.495259137,
    "緯度Lat": 22.8696107178,
    "資料序號Seq": 172
  },
  {
    "序號": 172,
    "營業主體": "千越加油站實業股份有限公司",
    "站名": "千越仁美加油站",
    "行政區": "鳥松區",
    "站址": "高雄市鳥松區神農路370號",
    "電話號碼": "07-7332589",
    "經度Lng": 120.380213744,
    "緯度Lat": 22.6590827946,
    "資料序號Seq": 173
  },
  {
    "序號": 173,
    "營業主體": "台亞石油股份有限公司",
    "站名": "台亞仁武加油站",
    "行政區": "仁武區",
    "站址": "高雄市仁武區鳳仁路304之3號",
    "電話號碼": "07-3732622",
    "經度Lng": 120.340518829,
    "緯度Lat": 22.7093062071,
    "資料序號Seq": 174
  },
  {
    "序號": 174,
    "營業主體": "宗源加油站有限公司",
    "站名": "中崙加油站",
    "行政區": "鳳山區",
    "站址": "高雄市鳳山區油管路38號",
    "電話號碼": "07-7532979",
    "經度Lng": 120.355119855,
    "緯度Lat": 22.6067516334,
    "資料序號Seq": 175
  },
  {
    "序號": 175,
    "營業主體": "上嘉油品有限公司",
    "站名": "聖森路加油站",
    "行政區": "岡山區",
    "站址": "高雄市岡山區岡燕路529號",
    "電話號碼": "07-6213709",
    "經度Lng": 120.312382408,
    "緯度Lat": 22.7903471985,
    "資料序號Seq": 176
  },
  {
    "序號": 176,
    "營業主體": "台灣中油股份有限公司",
    "站名": "岡山加油站",
    "行政區": "岡山區",
    "站址": "高雄市岡山區岡山南路45號",
    "電話號碼": "07-6252450",
    "經度Lng": 120.297638797,
    "緯度Lat": 22.7823203549,
    "資料序號Seq": 177
  },
  {
    "序號": 177,
    "營業主體": "台灣中油股份有限公司",
    "站名": "旗山加油站",
    "行政區": "旗山區",
    "站址": "高雄市旗山區復新街17號",
    "電話號碼": "07-6612044",
    "經度Lng": 120.482383224,
    "緯度Lat": 22.8847800038,
    "資料序號Seq": 178
  },
  {
    "序號": 178,
    "營業主體": "台灣中油股份有限公司",
    "站名": "鳳山加油站",
    "行政區": "鳳山區",
    "站址": "高雄市鳳山區中山東路10號",
    "電話號碼": "07-7462492",
    "經度Lng": 120.363464534,
    "緯度Lat": 22.6202616343,
    "資料序號Seq": 179
  },
  {
    "序號": 179,
    "營業主體": "台灣中油股份有限公司",
    "站名": "路竹加油站",
    "行政區": "路竹區",
    "站址": "高雄市路竹區中山路589號",
    "電話號碼": "07-6962240",
    "經度Lng": 120.256630633,
    "緯度Lat": 22.8663207638,
    "資料序號Seq": 180
  },
  {
    "序號": 180,
    "營業主體": "台灣中油股份有限公司",
    "站名": "美濃加油站",
    "行政區": "美濃區",
    "站址": "高雄市美濃區成功路133號",
    "電話號碼": "07-6812044",
    "經度Lng": 120.54689182,
    "緯度Lat": 22.8939750285,
    "資料序號Seq": 181
  },
  {
    "序號": 181,
    "營業主體": "台灣中油股份有限公司",
    "站名": "橋頭加油站",
    "行政區": "橋頭區",
    "站址": "高雄市橋頭區成功北路15號",
    "電話號碼": "07-6113644",
    "經度Lng": 120.307796183,
    "緯度Lat": 22.7624278057,
    "資料序號Seq": 182
  },
  {
    "序號": 182,
    "營業主體": "台灣中油股份有限公司",
    "站名": "太爺加油站",
    "行政區": "湖內區",
    "站址": "高雄市湖內區中山路二段61號",
    "電話號碼": "07-6993073",
    "經度Lng": 120.227946013,
    "緯度Lat": 22.9072096497,
    "資料序號Seq": 183
  },
  {
    "序號": 183,
    "營業主體": "台灣中油股份有限公司",
    "站名": "阿蓮加油站",
    "行政區": "阿蓮區",
    "站址": "高雄市阿蓮區中山路351號",
    "電話號碼": "07-6312139",
    "經度Lng": 120.32648191,
    "緯度Lat": 22.8735665139,
    "資料序號Seq": 184
  },
  {
    "序號": 184,
    "營業主體": "台灣中油股份有限公司",
    "站名": "仁武加油站",
    "行政區": "仁武區",
    "站址": "高雄市仁武區鳳仁路282號",
    "電話號碼": "07-3711361",
    "經度Lng": 120.34433126,
    "緯度Lat": 22.7033694516,
    "資料序號Seq": 185
  },
  {
    "序號": 185,
    "營業主體": "台灣中油股份有限公司",
    "站名": "六龜加油站",
    "行政區": "六龜區",
    "站址": "高雄市六龜區光復路308號",
    "電話號碼": "07-6891059",
    "經度Lng": 120.635986943,
    "緯度Lat": 22.9911998479,
    "資料序號Seq": 186
  },
  {
    "序號": 186,
    "營業主體": "台灣中油股份有限公司",
    "站名": "林園加油站",
    "行政區": "林園區",
    "站址": "高雄市林園區林園北路350號",
    "電話號碼": "07-6412285",
    "經度Lng": 120.395161211,
    "緯度Lat": 22.5119691298,
    "資料序號Seq": 187
  },
  {
    "序號": 187,
    "營業主體": "台灣中油股份有限公司",
    "站名": "五甲加油站",
    "行政區": "鳳山區",
    "站址": "高雄市鳳山區五甲一路232號",
    "電話號碼": "07-7460364",
    "經度Lng": 120.354649536,
    "緯度Lat": 22.6183308651,
    "資料序號Seq": 188
  },
  {
    "序號": 188,
    "營業主體": "台亞石油股份有限公司",
    "站名": "台亞岡山交流道加油站",
    "行政區": "岡山區",
    "站址": "高雄市岡山區介壽東路3號",
    "電話號碼": "07-6255654",
    "經度Lng": 120.316220638,
    "緯度Lat": 22.7863333204,
    "資料序號Seq": 189
  },
  {
    "序號": 189,
    "營業主體": "台灣中油股份有限公司",
    "站名": "鳳松加油站",
    "行政區": "鳳山區",
    "站址": "高雄市鳳山區鳳松路178之5號",
    "電話號碼": "07-7431562",
    "經度Lng": 120.362889143,
    "緯度Lat": 22.6369593965,
    "資料序號Seq": 190
  },
  {
    "序號": 190,
    "營業主體": "台灣中油股份有限公司",
    "站名": "大寮加油站",
    "行政區": "大寮區",
    "站址": "高雄市大寮區鳳林三路616號",
    "電話號碼": "07-7813631",
    "經度Lng": 120.394953382,
    "緯度Lat": 22.608881185,
    "資料序號Seq": 191
  },
  {
    "序號": 191,
    "營業主體": "台灣中油股份有限公司",
    "站名": "燕巢加油站",
    "行政區": "燕巢區",
    "站址": "高雄市燕巢區中興路199號",
    "電話號碼": "07-6161704",
    "經度Lng": 120.362768736,
    "緯度Lat": 22.7881085527,
    "資料序號Seq": 192
  },
  {
    "序號": 192,
    "營業主體": "台灣中油股份有限公司",
    "站名": "永安加油站",
    "行政區": "永安區",
    "站址": "高雄市永安區保安路47號",
    "電話號碼": "07-6912014",
    "經度Lng": 120.24211001,
    "緯度Lat": 22.8140865251,
    "資料序號Seq": 193
  },
  {
    "序號": 193,
    "營業主體": "台灣中油股份有限公司",
    "站名": "甲仙加油站",
    "行政區": "甲仙區",
    "站址": "高雄市甲仙區新興路55號",
    "電話號碼": "07-6751555",
    "經度Lng": 120.581694181,
    "緯度Lat": 23.0764752375,
    "資料序號Seq": 194
  },
  {
    "序號": 194,
    "營業主體": "台灣中油股份有限公司",
    "站名": "林園沿海路加油站",
    "行政區": "林園區",
    "站址": "高雄市林園區沿海路四段1號",
    "電話號碼": "07-6417604",
    "經度Lng": 120.386051622,
    "緯度Lat": 22.5000043748,
    "資料序號Seq": 195
  },
  {
    "序號": 195,
    "營業主體": "台灣中油股份有限公司",
    "站名": "大樹加油站",
    "行政區": "大樹區",
    "站址": "高雄市大樹區中興北路184號",
    "電話號碼": "07-6561249",
    "經度Lng": 120.434044049,
    "緯度Lat": 22.6987820561,
    "資料序號Seq": 196
  },
  {
    "序號": 196,
    "營業主體": "台灣中油股份有限公司",
    "站名": "梓官加油站",
    "行政區": "梓官區",
    "站址": "高雄市梓官區和平路317號",
    "電話號碼": "07-6173555",
    "經度Lng": 120.26245667,
    "緯度Lat": 22.7601884924,
    "資料序號Seq": 197
  },
  {
    "序號": 197,
    "營業主體": "台灣中油股份有限公司",
    "站名": "茄萣加油站",
    "行政區": "茄萣區",
    "站址": "高雄市茄萣區白砂路6號",
    "電話號碼": "07-6902849",
    "經度Lng": 120.184091839,
    "緯度Lat": 22.9068916093,
    "資料序號Seq": 198
  },
  {
    "序號": 198,
    "營業主體": "台灣中油股份有限公司",
    "站名": "杉林加油站",
    "行政區": "杉林區",
    "站址": "高雄市杉林區清水路304號",
    "電話號碼": "07-6772888",
    "經度Lng": 120.538292158,
    "緯度Lat": 22.9700438807,
    "資料序號Seq": 199
  },
  {
    "序號": 199,
    "營業主體": "台灣中油股份有限公司",
    "站名": "嶺口加油站",
    "行政區": "大樹區",
    "站址": "高雄市大樹區統嶺路125之2號",
    "電話號碼": "07-6562965",
    "經度Lng": 120.436265519,
    "緯度Lat": 22.7734021306,
    "資料序號Seq": 200
  },
  {
    "序號": 200,
    "營業主體": "台灣中油股份有限公司",
    "站名": "大湖加油站",
    "行政區": "湖內區",
    "站址": "高雄市湖內區中山路一段72號",
    "電話號碼": "07-6931793",
    "經度Lng": 120.539665063,
    "緯度Lat": 22.9015068581,
    "資料序號Seq": 201
  },
  {
    "序號": 201,
    "營業主體": "台灣中油股份有限公司",
    "站名": "內門加油站",
    "行政區": "內門區",
    "站址": "高雄市內門區南屏路125號",
    "電話號碼": "07-6671661",
    "經度Lng": 120.455086065,
    "緯度Lat": 22.9210942968,
    "資料序號Seq": 202
  },
  {
    "序號": 202,
    "營業主體": "帝兆加油站有限公司",
    "站名": "介壽路加油站",
    "行政區": "岡山區",
    "站址": "高雄市岡山區介壽東路157號",
    "電話號碼": "07-6256375",
    "經度Lng": 120.307132706,
    "緯度Lat": 22.7852574983,
    "資料序號Seq": 203
  },
  {
    "序號": 203,
    "營業主體": "全緣國際股份有限公司",
    "站名": "佛光山加油站",
    "行政區": "大樹區",
    "站址": "高雄市大樹區興田路116之20號",
    "電話號碼": "07-6564626",
    "經度Lng": 120.448317927,
    "緯度Lat": 22.7505340502,
    "資料序號Seq": 204
  },
  {
    "序號": 204,
    "營業主體": "永全加油站股份有限公司",
    "站名": "永全加油站",
    "行政區": "燕巢區",
    "站址": "高雄市燕巢區安招路1044號",
    "電話號碼": "07-6165222",
    "經度Lng": 120.316895083,
    "緯度Lat": 22.7871336955,
    "資料序號Seq": 205
  },
  {
    "序號": 205,
    "營業主體": "台欣加油站股份有限公司",
    "站名": "新達加油站",
    "行政區": "路竹區",
    "站址": "高雄市路竹區大公路439號",
    "電話號碼": "07-6982326",
    "經度Lng": 120.228846749,
    "緯度Lat": 22.8530493447,
    "資料序號Seq": 206
  },
  {
    "序號": 206,
    "營業主體": "統一精工股份有限公司",
    "站名": "統一精工佳興加油站",
    "行政區": "岡山區",
    "站址": "高雄市岡山區成功路462號",
    "電話號碼": "07-6225854",
    "經度Lng": 120.300542224,
    "緯度Lat": 22.811704698,
    "資料序號Seq": 207
  },
  {
    "序號": 207,
    "營業主體": "台亞石油股份有限公司",
    "站名": "台亞明田加油站",
    "行政區": "路竹區",
    "站址": "高雄市路竹區中山路1016號",
    "電話號碼": "07-6972115",
    "經度Lng": 120.261475849,
    "緯度Lat": 22.851314354,
    "資料序號Seq": 208
  },
  {
    "序號": 208,
    "營業主體": "嶺東股份有限公司",
    "站名": "嶺東加油站",
    "行政區": "旗山區",
    "站址": "高雄市旗山區旗南三路204之1號",
    "電話號碼": "07-6651668",
    "經度Lng": 120.449948588,
    "緯度Lat": 22.7738665659,
    "資料序號Seq": 209
  },
  {
    "序號": 209,
    "營業主體": "台亞石油股份有限公司",
    "站名": "台亞鳥松加油站",
    "行政區": "鳥松區",
    "站址": "高雄市鳥松區中正路44之77號",
    "電話號碼": "07-7319462",
    "經度Lng": 120.365441632,
    "緯度Lat": 22.6536946401,
    "資料序號Seq": 210
  },
  {
    "序號": 210,
    "營業主體": "清豐加油站股份有限公司",
    "站名": "清豐加油站",
    "行政區": "美濃區",
    "站址": "高雄市美濃區中正路二段655號",
    "電話號碼": "07-6834101",
    "經度Lng": 120.536965499,
    "緯度Lat": 22.871219297,
    "資料序號Seq": 211
  },
  {
    "序號": 211,
    "營業主體": "山隆通運股份有限公司",
    "站名": "永發加油站",
    "行政區": "彌陀區",
    "站址": "高雄市彌陀區鹽埕大路160號",
    "電話號碼": "07-6106682",
    "經度Lng": 120.244986747,
    "緯度Lat": 22.7926462227,
    "資料序號Seq": 212
  },
  {
    "序號": 212,
    "營業主體": "興達加油站股份有限公司",
    "站名": "興達加油站",
    "行政區": "湖內區",
    "站址": "高雄市湖內區和平路5號",
    "電話號碼": "07-6996169",
    "經度Lng": 120.224493712,
    "緯度Lat": 22.8738342036,
    "資料序號Seq": 213
  },
  {
    "序號": 213,
    "營業主體": "美德加油站股份有限公司",
    "站名": "美德加油站",
    "行政區": "美濃區",
    "站址": "高雄市美濃區中興路一段401號",
    "電話號碼": "07-6818556",
    "經度Lng": 120.53670178,
    "緯度Lat": 22.8853610247,
    "資料序號Seq": 214
  },
  {
    "序號": 214,
    "營業主體": "統一精工股份有限公司",
    "站名": "統一精工鳳翔加油站",
    "行政區": "鳳山區",
    "站址": "高雄市鳳山區五甲一路667號",
    "電話號碼": "07-7531530",
    "經度Lng": 120.34950565,
    "緯度Lat": 22.6098835822,
    "資料序號Seq": 215
  },
  {
    "序號": 215,
    "營業主體": "全國加油站股份有限公司",
    "站名": "全國仁武交流道加油站",
    "行政區": "仁武區",
    "站址": "高雄市仁武區鳳仁路166號",
    "電話號碼": "07-3725832",
    "經度Lng": 120.348125442,
    "緯度Lat": 22.6965556062,
    "資料序號Seq": 216
  },
  {
    "序號": 216,
    "營業主體": "順發加油站有限公司",
    "站名": "順發加油站",
    "行政區": "大寮區",
    "站址": "高雄市大寮區光明路二段382號",
    "電話號碼": "07-7883659",
    "經度Lng": 120.420191913,
    "緯度Lat": 22.5902528154,
    "資料序號Seq": 217
  },
  {
    "序號": 217,
    "營業主體": "松詠有限公司",
    "站名": "新厝加油站",
    "行政區": "大寮區",
    "站址": "高雄市大寮區鳳林二路137號",
    "電話號碼": "07-7875121",
    "經度Lng": 120.411586573,
    "緯度Lat": 22.5608780281,
    "資料序號Seq": 218
  },
  {
    "序號": 218,
    "營業主體": "山隆通運股份有限公司",
    "站名": "山隆燕巢加油站",
    "行政區": "燕巢區",
    "站址": "高雄市燕巢區安招路730號",
    "電話號碼": "07-9585623",
    "經度Lng": 120.325416883,
    "緯度Lat": 22.7894182895,
    "資料序號Seq": 219
  },
  {
    "序號": 219,
    "營業主體": "鳳榮加油站股份有限公司",
    "站名": "鳳榮加油站",
    "行政區": "大寮區",
    "站址": "高雄市大寮區大漢路225號",
    "電話號碼": "07-7038452",
    "經度Lng": 120.38383947,
    "緯度Lat": 22.6354373069,
    "資料序號Seq": 220
  },
  {
    "序號": 220,
    "營業主體": "松詠有限公司",
    "站名": "新厝大發加油站",
    "行政區": "大寮區",
    "站址": "高雄市大寮區鳳林二路802號",
    "電話號碼": "07-7878075",
    "經度Lng": 120.407337482,
    "緯度Lat": 22.5818877523,
    "資料序號Seq": 221
  },
  {
    "序號": 221,
    "營業主體": "港埔加油站有限公司",
    "站名": "港埔加油站",
    "行政區": "林園區",
    "站址": "高雄市林園區中門路1之29號",
    "電話號碼": "07-6415389",
    "經度Lng": 120.372013199,
    "緯度Lat": 22.5027714021,
    "資料序號Seq": 222
  },
  {
    "序號": 222,
    "營業主體": "山隆通運股份有限公司",
    "站名": "山隆大發加油站",
    "行政區": "大寮區",
    "站址": "高雄市大寮區大寮路201號",
    "電話號碼": "07-7822196",
    "經度Lng": 120.405537042,
    "緯度Lat": 22.594708441,
    "資料序號Seq": 223
  },
  {
    "序號": 223,
    "營業主體": "台亞石油股份有限公司",
    "站名": "台亞林園加油站",
    "行政區": "林園區",
    "站址": "高雄市林園區鳳林路三段650號",
    "電話號碼": "07-6433066",
    "經度Lng": 120.398914299,
    "緯度Lat": 22.5238597994,
    "資料序號Seq": 224
  },
  {
    "序號": 224,
    "營業主體": "台亞石油股份有限公司",
    "站名": "台亞程香加油站",
    "行政區": "岡山區",
    "站址": "高雄市岡山區岡燕路500號",
    "電話號碼": "07-6220129",
    "經度Lng": 120.310311681,
    "緯度Lat": 22.7907115263,
    "資料序號Seq": 225
  },
  {
    "序號": 225,
    "營業主體": "台亞石油股份有限公司",
    "站名": "台亞林園工業區加油站",
    "行政區": "林園區",
    "站址": "高雄市林園區沿海路一段149號",
    "電話號碼": "07-6415439",
    "經度Lng": 120.401997405,
    "緯度Lat": 22.5003491459,
    "資料序號Seq": 226
  },
  {
    "序號": 226,
    "營業主體": "滿達股份有限公司",
    "站名": "昭明加油站",
    "行政區": "大寮區",
    "站址": "高雄市大寮區鳳林路四段400號",
    "電話號碼": "07-6452183",
    "經度Lng": 120.409693873,
    "緯度Lat": 22.5397924167,
    "資料序號Seq": 227
  },
  {
    "序號": 227,
    "營業主體": "湖中路加油站有限公司",
    "站名": "湖中路加油站",
    "行政區": "湖內區",
    "站址": "高雄市湖內區湖中路685號",
    "電話號碼": "07-6998505",
    "經度Lng": 120.207573939,
    "緯度Lat": 22.905856631,
    "資料序號Seq": 228
  },
  {
    "序號": 228,
    "營業主體": "台灣糖業股份有限公司",
    "站名": "台糖國泰加油站",
    "行政區": "鳳山區",
    "站址": "高雄市鳳山區國泰路一段281號",
    "電話號碼": "07-7552190",
    "經度Lng": 120.353614202,
    "緯度Lat": 22.615719336,
    "資料序號Seq": 229
  },
  {
    "序號": 229,
    "營業主體": "台灣糖業股份有限公司",
    "站名": "台糖仁新加油站",
    "行政區": "仁武區",
    "站址": "高雄市仁武區水管路三段276號",
    "電話號碼": "07-3745186",
    "經度Lng": 120.358804195,
    "緯度Lat": 22.7035930987,
    "資料序號Seq": 230
  },
  {
    "序號": 230,
    "營業主體": "山隆通運股份有限公司",
    "站名": "山隆軍校加油站",
    "行政區": "岡山區",
    "站址": "高雄市岡山區石潭路100號",
    "電話號碼": "07-6253965",
    "經度Lng": 120.268497995,
    "緯度Lat": 22.7711102965,
    "資料序號Seq": 231
  },
  {
    "序號": 231,
    "營業主體": "松詠有限公司",
    "站名": "新厝鳳林加油站",
    "行政區": "大寮區",
    "站址": "高雄市大寮區萬丹路16號",
    "電話號碼": "07-7812086",
    "經度Lng": 120.391610225,
    "緯度Lat": 22.6121513588,
    "資料序號Seq": 232
  },
  {
    "序號": 232,
    "營業主體": "台灣糖業股份有限公司",
    "站名": "台糖建軍加油站",
    "行政區": "鳳山區",
    "站址": "高雄市鳳山區鳳頂路602號",
    "電話號碼": "07-7534140",
    "經度Lng": 120.360471128,
    "緯度Lat": 22.5980515312,
    "資料序號Seq": 233
  },
  {
    "序號": 233,
    "營業主體": "台灣糖業股份有限公司",
    "站名": "台糖高鐵加油站",
    "行政區": "仁武區",
    "站址": "高雄市仁武區高楠公路55號",
    "電話號碼": "07-3424295",
    "經度Lng": 120.321603464,
    "緯度Lat": 22.6936650215,
    "資料序號Seq": 234
  },
  {
    "序號": 234,
    "營業主體": "台灣糖業股份有限公司",
    "站名": "台糖大湖加油站",
    "行政區": "湖內區",
    "站址": "高雄市湖內區中山路一段200號",
    "電話號碼": "07-6935429",
    "經度Lng": 120.247977376,
    "緯度Lat": 22.8836675434,
    "資料序號Seq": 235
  },
  {
    "序號": 235,
    "營業主體": "台灣糖業股份有限公司",
    "站名": "台糖橫山加油站",
    "行政區": "大社區",
    "站址": "高雄市大社區和平路一段2號",
    "電話號碼": "07-3542823",
    "經度Lng": 120.362803808,
    "緯度Lat": 22.7509503734,
    "資料序號Seq": 236
  },
  {
    "序號": 236,
    "營業主體": "全國加油站股份有限公司",
    "站名": "全國鳳山加油站",
    "行政區": "鳳山區",
    "站址": "高雄市鳳山區中山西路218號",
    "電話號碼": "07-7100668",
    "經度Lng": 120.348739879,
    "緯度Lat": 22.6279755808,
    "資料序號Seq": 237
  },
  {
    "序號": 237,
    "營業主體": "久井企業股份有限公司",
    "站名": "久井湖內加油站",
    "行政區": "湖內區",
    "站址": "高雄市湖內區中山路二段3號",
    "電話號碼": "07-6996067",
    "經度Lng": 120.233419267,
    "緯度Lat": 22.899770115,
    "資料序號Seq": 238
  },
  {
    "序號": 238,
    "營業主體": "弘奇建設股份有限公司",
    "站名": "弘奇加油站",
    "行政區": "大寮區",
    "站址": "高雄市大寮區鳳屏二路3號",
    "電話號碼": "07-7030118",
    "經度Lng": 120.401830677,
    "緯度Lat": 22.6398218733,
    "資料序號Seq": 239
  },
  {
    "序號": 239,
    "營業主體": "台灣中油股份有限公司",
    "站名": "友情加油站",
    "行政區": "岡山區",
    "站址": "高雄市岡山區介壽東路83號",
    "電話號碼": "07-6258611",
    "經度Lng": 120.313447443,
    "緯度Lat": 22.7860344205,
    "資料序號Seq": 240
  },
  {
    "序號": "",
    "營業主體": "",
    "站名": "",
    "行政區": "",
    "站址": "",
    "電話號碼": "07-6166102",
    "經度Lng": "",
    "緯度Lat": "",
    "資料序號Seq": 241
  },
  {
    "序號": 240,
    "營業主體": "中鷹加油站股份有限公司",
    "站名": "中鷹加油站",
    "行政區": "仁武區",
    "站址": "高雄市仁武區鳳仁路321號",
    "電話號碼": "07-3722785",
    "經度Lng": 120.337942324,
    "緯度Lat": 22.712352652,
    "資料序號Seq": 242
  },
  {
    "序號": 241,
    "營業主體": "台灣糖業股份有限公司",
    "站名": "台糖大社加油站",
    "行政區": "大社區",
    "站址": "高雄市大社區中正路600號",
    "電話號碼": "07-3542786",
    "經度Lng": 120.352555779,
    "緯度Lat": 22.7508946248,
    "資料序號Seq": 243
  },
  {
    "序號": 242,
    "營業主體": "台灣中油股份有限公司",
    "站名": "本洲加油站",
    "行政區": "永安區",
    "站址": "高雄市永安區維新路18之1號",
    "電話號碼": "07-6233026",
    "經度Lng": 120.257590448,
    "緯度Lat": 22.8084873782,
    "資料序號Seq": 244
  },
  {
    "序號": 243,
    "營業主體": "建元加油站股份有限公司",
    "站名": "建元加油站",
    "行政區": "燕巢區",
    "站址": "高雄市燕巢區安招路456之1號",
    "電話號碼": "07-6163332",
    "經度Lng": 120.332901516,
    "緯度Lat": 22.7902011058,
    "資料序號Seq": 245
  },
  {
    "序號": 244,
    "營業主體": "台灣中油股份有限公司",
    "站名": "南寮加油站",
    "行政區": "彌陀區",
    "站址": "高雄市彌陀區漁港路71號",
    "電話號碼": "07-6109661",
    "經度Lng": 120.237351052,
    "緯度Lat": 22.7642810936,
    "資料序號Seq": 246
  },
  {
    "序號": 245,
    "營業主體": "宗源加油站有限公司",
    "站名": "華豐加油站",
    "行政區": "鳳山區",
    "站址": "高雄市鳳山區鳳南路286號",
    "電話號碼": "07-7245767",
    "經度Lng": 120.334894819,
    "緯度Lat": 22.6026578936,
    "資料序號Seq": 247
  },
  {
    "序號": 246,
    "營業主體": "吉基企業有限公司",
    "站名": "全通加油站",
    "行政區": "大樹區",
    "站址": "高雄市大樹區大坑路109號",
    "電話號碼": "07-6564367",
    "經度Lng": 120.442588567,
    "緯度Lat": 22.7152072249,
    "資料序號Seq": 248
  },
  {
    "序號": 247,
    "營業主體": "台灣糖業股份有限公司",
    "站名": "台糖民族三加油站",
    "行政區": "仁武區",
    "站址": "高雄市仁武區高楠公路62號",
    "電話號碼": "07-3101363",
    "經度Lng": 120.323872687,
    "緯度Lat": 22.7015651415,
    "資料序號Seq": 249
  },
  {
    "序號": 248,
    "營業主體": "台灣糖業股份有限公司",
    "站名": "台糖公正加油站",
    "行政區": "旗山區",
    "站址": "高雄市旗山區旗甲二路10號",
    "電話號碼": "07-6692470",
    "經度Lng": 120.4964932,
    "緯度Lat": 22.9210609995,
    "資料序號Seq": 250
  },
  {
    "序號": 249,
    "營業主體": "台灣糖業股份有限公司",
    "站名": "台糖大發加油站",
    "行政區": "大寮區",
    "站址": "高雄市大寮區大寮路1303號",
    "電話號碼": "07-7887110",
    "經度Lng": 120.429054973,
    "緯度Lat": 22.5925780473,
    "資料序號Seq": 251
  },
  {
    "序號": 250,
    "營業主體": "久井企業股份有限公司",
    "站名": "久井路科加油站",
    "行政區": "路竹區",
    "站址": "高雄市路竹區中山南路118號",
    "電話號碼": "07-6964998",
    "經度Lng": 120.267606073,
    "緯度Lat": 22.8222904244,
    "資料序號Seq": 252
  },
  {
    "序號": 251,
    "營業主體": "大舍南路有限公司",
    "站名": "向陽加油站",
    "行政區": "梓官區",
    "站址": "高雄市梓官區大舍南路92號",
    "電話號碼": "07-6107628",
    "經度Lng": 120.262027184,
    "緯度Lat": 22.7452471897,
    "資料序號Seq": 253
  },
  {
    "序號": 252,
    "營業主體": "大田加油站有限公司",
    "站名": "大田加油站",
    "行政區": "甲仙區",
    "站址": "高雄市甲仙區田寮巷27號",
    "電話號碼": "07-6754328",
    "經度Lng": 120.573530918,
    "緯度Lat": 23.0641728059,
    "資料序號Seq": 254
  },
  {
    "序號": 253,
    "營業主體": "松詠有限公司",
    "站名": "新厝中安加油站",
    "行政區": "鳳山區",
    "站址": "高雄市鳳山區中安路709號",
    "電話號碼": "07-7922755",
    "經度Lng": 120.360543901,
    "緯度Lat": 22.5851775126,
    "資料序號Seq": 255
  },
  {
    "序號": 254,
    "營業主體": "大崗山加油站有限公司",
    "站名": "大崗山加油站",
    "行政區": "阿蓮區",
    "站址": "高雄市阿蓮區峰南66之12號",
    "電話號碼": "07-6321100",
    "經度Lng": 120.351770549,
    "緯度Lat": 22.8767498157,
    "資料序號Seq": 256
  },
  {
    "序號": 255,
    "營業主體": "台灣糖業股份有限公司",
    "站名": "台糖白埔加油站",
    "行政區": "橋頭區",
    "站址": "高雄市橋頭區芋寮路南段412號",
    "電話號碼": "07-6128270",
    "經度Lng": 120.295407433,
    "緯度Lat": 22.7566869671,
    "資料序號Seq": 257
  },
  {
    "序號": 256,
    "營業主體": "台灣糖業股份有限公司",
    "站名": "台糖仁林加油站",
    "行政區": "仁武區",
    "站址": "高雄市仁武區澄觀路二段2號",
    "電話號碼": "07-3735596",
    "經度Lng": 120.36009352,
    "緯度Lat": 22.7018870379,
    "資料序號Seq": 258
  },
  {
    "序號": 257,
    "營業主體": "潔勵企業股份有限公司",
    "站名": "岡山北路加油站",
    "行政區": "岡山區",
    "站址": "高雄市岡山區岡山路608號",
    "電話號碼": "07-6210838",
    "經度Lng": 120.291359943,
    "緯度Lat": 22.8027397258,
    "資料序號Seq": 259
  },
  {
    "序號": 258,
    "營業主體": "福懋興業股份有限公司",
    "站名": "福懋燕巢加油站",
    "行政區": "燕巢區",
    "站址": "高雄市燕巢區安北路50號",
    "電話號碼": "07-6141478",
    "經度Lng": 120.350207244,
    "緯度Lat": 22.7924986631,
    "資料序號Seq": 260
  },
  {
    "序號": 259,
    "營業主體": "山隆通運股份有限公司",
    "站名": "山隆本洲加油站",
    "行政區": "岡山區",
    "站址": "高雄市岡山區本洲路11號",
    "電話號碼": "07-6219117",
    "經度Lng": 120.278525583,
    "緯度Lat": 22.8041699012,
    "資料序號Seq": 261
  },
  {
    "序號": 260,
    "營業主體": "三杰加油站",
    "站名": "三杰加油站",
    "行政區": "六龜區",
    "站址": "高雄市六龜區光復路416號",
    "電話號碼": "07-6895636",
    "經度Lng": 120.636716282,
    "緯度Lat": 22.9861630213,
    "資料序號Seq": 262
  },
  {
    "序號": 261,
    "營業主體": "國安加油站企業有限公司",
    "站名": "國安加油站",
    "行政區": "甲仙區",
    "站址": "高雄市甲仙區中園路200號",
    "電話號碼": "07-6753828",
    "經度Lng": 120.571041528,
    "緯度Lat": 23.0626281049,
    "資料序號Seq": 263
  },
  {
    "序號": 262,
    "營業主體": "梅蘭加油站有限公司",
    "站名": "梅蘭加油站",
    "行政區": "桃源區",
    "站址": "高雄市桃源區南橫公路五段199號",
    "電話號碼": "07-6866039",
    "經度Lng": 120.813045539,
    "緯度Lat": 23.240503722,
    "資料序號Seq": 264
  },
  {
    "序號": 263,
    "營業主體": "捷利油品實業股份有限公司",
    "站名": "茄萣仁愛加油站",
    "行政區": "茄萣區",
    "站址": "高雄市茄萣區仁愛路一段2號",
    "電話號碼": "07-6986836",
    "經度Lng": 120.186522297,
    "緯度Lat": 22.8864047693,
    "資料序號Seq": 265
  },
  {
    "序號": 264,
    "營業主體": "千越加油站實業股份有限公司",
    "站名": "千越武慶加油站",
    "行政區": "鳳山區",
    "站址": "高雄市鳳山區武慶二路306號",
    "電話號碼": "07-7235899",
    "經度Lng": 120.332724787,
    "緯度Lat": 22.6167788434,
    "資料序號Seq": 266
  },
  {
    "序號": 265,
    "營業主體": "亞太國際物流股份有限公司",
    "站名": "亞柏八卦寮加油站",
    "行政區": "仁武區",
    "站址": "高雄市仁武區八德西路433號",
    "電話號碼": "07-3717900",
    "經度Lng": 120.3289833,
    "緯度Lat": 22.6816357859,
    "資料序號Seq": 267
  },
  {
    "序號": 266,
    "營業主體": "亞太國際物流股份有限公司",
    "站名": "亞柏仁武加油站",
    "行政區": "仁武區",
    "站址": "高雄市仁武區澄觀路一段1111號",
    "電話號碼": "07-3711336",
    "經度Lng": 120.359161005,
    "緯度Lat": 22.7017554314,
    "資料序號Seq": 268
  },
  {
    "序號": 267,
    "營業主體": "山隆通運股份有限公司",
    "站名": "山隆林園加油站",
    "行政區": "林園區",
    "站址": "高雄市林園區鳳林路二段1038號",
    "電話號碼": "07-6415596",
    "經度Lng": 120.395563798,
    "緯度Lat": 22.5154234633,
    "資料序號Seq": 269
  },
  {
    "序號": 268,
    "營業主體": "千越加油站實業股份有限公司",
    "站名": "千越鳳頂加油站",
    "行政區": "鳳山區",
    "站址": "高雄市鳳山區鳳頂路225號",
    "電話號碼": "07-7961788",
    "經度Lng": 120.358536575,
    "緯度Lat": 22.5915027024,
    "資料序號Seq": 270
  },
  {
    "序號": 269,
    "營業主體": "宗源加油站有限公司",
    "站名": "源興加油加氣站",
    "行政區": "鳳山區",
    "站址": "高雄市鳳山區油管路99號",
    "電話號碼": "07-7539799",
    "經度Lng": 120.348774678,
    "緯度Lat": 22.6070495451,
    "資料序號Seq": 271
  },
  {
    "序號": 270,
    "營業主體": "台灣糖業股份有限公司",
    "站名": "台糖鳳仁加油站",
    "行政區": "仁武區",
    "站址": "高雄市仁武區鳳仁路102號",
    "電話號碼": "07-3725141",
    "經度Lng": 120.351122263,
    "緯度Lat": 22.6904518151,
    "資料序號Seq": 272
  }
]